%time,field.header.seq,field.header.stamp,field.header.frame_id,field.pose.position.x,field.pose.position.y,field.pose.position.z,field.pose.orientation.x,field.pose.orientation.y,field.pose.orientation.z,field.pose.orientation.w
1752629979234833002,0,1752629979234833002,map,0.0,0.0,0.0,0.0,0.0,0.0,1.0
1752629980234577894,1,1752629980234577894,map,-0.000365608376521,0.000258523591363,0.000193975677554,0.000171819901207,-2.90113538552e-05,-0.000304815654068,0.999999940395
1752629981234656095,2,1752629981234656095,map,-0.000506214912262,0.000134142421902,0.00028876308965,0.000254240458914,-2.49597178888e-05,-0.000282740619843,0.999999925494
1752629982234539031,3,1752629982234539031,map,3.66212156407e-05,1.04825325312e-06,3.98524677549e-05,4.9121927809e-05,0.000151786395224,-2.46812363952e-05,0.999999985099
1752629983234687089,4,1752629983234687089,map,9.58187060843e-05,7.84468103899e-06,-3.80846279241e-05,-2.53023820998e-06,0.00022742458482,-4.69483852961e-05,0.999999970198
1752629984234463930,5,1752629984234463930,map,0.000125522021715,-0.000120045897849,-5.50715759628e-05,9.5035386747e-05,0.000107732718682,3.04536736162e-05,0.999999992549
1752629985234664916,6,1752629985234664916,map,1.0967752338e-05,-5.77134697711e-05,-3.46668698096e-06,7.72809435148e-05,-8.43411226015e-06,-2.26918325552e-06,1.0
1752629986234509944,7,1752629986234509944,map,-4.92526311225e-06,4.61620340075e-05,8.17838509298e-05,2.41393195211e-06,2.82170612991e-05,-4.19834323111e-05,1.0
1752629987234448909,8,1752629987234448909,map,4.46395428226e-05,-1.05113721953e-05,7.95542971544e-05,4.47850779892e-05,4.09462627431e-05,-2.6802852517e-05,1.0
1752629988234736919,9,1752629988234736919,map,6.96780316698e-05,1.06506028111e-05,-5.29818818886e-05,9.65704566624e-06,6.09207268099e-06,-6.4667830884e-05,1.0
1752629989234611034,10,1752629989234611034,map,9.75057306487e-05,-3.78168037939e-05,-1.6033165462e-05,3.89595843444e-05,9.12766663532e-05,-2.73852765531e-05,1.0
1752629990234535932,11,1752629990234535932,map,0.000140061071229,-7.57995308351e-05,-4.25282705712e-05,5.80744854233e-05,5.45683360542e-05,-2.74229651041e-05,1.0
1752629991234548091,12,1752629991234548091,map,4.18827592631e-05,-3.44426617936e-05,1.75343684415e-05,5.20083940501e-05,-5.5015889302e-06,-3.84919439966e-05,1.0
1752629992234571933,13,1752629992234571933,map,0.000113455903197,-0.000103024840834,-3.82315913661e-05,3.59628938895e-05,-8.34072961879e-05,-7.31932573217e-06,1.0
1752629993234803915,14,1752629993234803915,map,0.000131469977982,-9.6070927679e-06,9.65747988956e-06,1.97298886633e-05,-5.7562472648e-05,-6.72427195241e-05,1.0
1752629994234586954,15,1752629994234586954,map,8.61174610082e-05,1.60607605559e-05,-7.05813863576e-05,-1.23148784959e-05,-8.90457965665e-05,-9.94300688167e-05,0.999999992549
1752629995234515905,16,1752629995234515905,map,0.000120131840694,2.13973317703e-05,-2.16862891927e-05,8.29060536489e-06,-1.77939427886e-05,-9.78879106697e-05,1.0
1752629996242499113,17,1752629996242499113,map,0.000186196963531,-3.43685334467e-05,4.16834120323e-06,4.18154813815e-05,2.95868048852e-05,-8.26595714898e-05,1.0
1752629997234487056,18,1752629997234487056,map,0.000179029062198,-3.04664075454e-05,-4.30806546573e-05,3.44853415299e-05,-5.10676054546e-05,-9.56341173151e-05,1.0
1752629998234555006,19,1752629998234555006,map,0.000280378115071,-8.37317141017e-05,-6.67442537093e-05,-2.22679665807e-05,-0.000117718173864,-0.000118139830163,0.999999992549
1752629999234512090,20,1752629999234512090,map,0.000454628082948,-5.07147646799e-05,-0.000358182165698,-0.000131080775981,4.13927134063e-05,-0.000224172109649,0.999999962747
1752630000233841896,21,1752630000233841896,map,0.000241814852492,-8.28577099319e-06,-0.000207799291011,-0.000106189475091,-0.000121937943729,-0.000120948489869,0.999999977648
1752630001234503984,22,1752630001234503984,map,0.000511220584006,-4.55958314879e-05,-0.000109183347584,-5.00500599356e-05,-0.00021397712796,-0.000222650870244,0.999999947846
1752630002238490104,23,1752630002238490104,map,0.00100871260528,-0.000216969482725,-0.000315415447005,-0.000110846384375,-0.000442683814903,-0.000453973193009,0.999999798834
1752630003234489917,24,1752630003234489917,map,0.00114552245705,-0.000240903985633,-0.000283293959265,-7.94643930676e-05,-0.000848234371194,-0.000613302854426,0.999999448657
1752630004234500885,25,1752630004234500885,map,0.00161924913878,-0.000321027183703,-0.000236551433945,9.90337045678e-05,-0.000781281624241,-0.000765436558056,0.999999396503
1752630005234471082,26,1752630005234471082,map,0.00248425224512,-0.000626501457442,0.00010891870683,0.00041989366099,-0.000947799635,-0.000986158639397,0.999998971819
1752630006234952926,27,1752630006234952926,map,0.00329096008202,-0.000792737091728,0.000550674930734,0.000640893302987,-0.00106635739922,-0.00141864866014,0.99999821931
1752630007234494924,28,1752630007234494924,map,0.00778792822119,-0.00133558789597,0.0024825848533,0.00153593727675,-0.000511718815605,-0.00239656507036,0.999995812765
1752630008234504938,29,1752630008234504938,map,0.015027146548,-0.00207869609471,0.00626839302151,0.00221506508134,-0.000573571151789,-0.0014986228952,0.999996259802
1752630009234505891,30,1752630009234505891,map,0.0258342997408,-0.00181479126957,0.0107993494481,0.00193890689223,-0.000454762915633,-0.00142575191355,0.999997004862
1752630010234776020,31,1752630010234776020,map,0.036368108314,-0.00184398582983,0.0150050740032,0.00206749956421,-0.000824341773262,0.00186944739412,0.999995775512
1752630011234489917,32,1752630011234489917,map,0.0469413799231,0.0034428483002,0.019084652742,-0.0022701266474,-0.000868791490473,0.0105428771285,0.999941466526
1752630012234457015,33,1752630012234457015,map,0.0568156305328,0.00678007081556,0.0231615564435,-0.00514906281586,-0.000931157928867,0.0198071576428,0.999790124923
1752630013234489917,34,1752630013234489917,map,0.0652075083882,0.0129572912187,0.0268395622624,-0.0100953911351,-0.00110221265709,0.0327853310176,0.99941081333
1752630014234494924,35,1752630014234494924,map,0.0742975674136,0.0145409346802,0.0309097831886,-0.0111100497336,-0.00150307383552,0.0359315537748,0.999291362615
1752630015234491109,36,1752630015234491109,map,0.0863598574095,0.0168428656814,0.0347915822661,-0.0125114851559,-0.00172118384914,0.041147581316,0.999073262245
1752630016234462976,37,1752630016234462976,map,0.0948780259694,0.0198627808433,0.0375459585365,-0.0155720124505,-0.00215727613311,0.0463855436843,0.998799900317
1752630017234486103,38,1752630017234486103,map,0.105833909157,0.0170026396852,0.0404548304521,-0.0129312739325,-0.00266691639745,0.0406290977684,0.999087051052
1752630018234518051,39,1752630018234518051,map,0.118094258899,0.0126221581619,0.0459379624737,-0.00917062358907,-0.00235178586428,0.027333431525,0.99958153254
1752630019234513044,40,1752630019234513044,map,0.130218436839,0.00374375902988,0.0503616714662,-0.000501301564969,-0.00250032977863,0.0124156301527,0.999919672064
1752630020238468885,41,1752630020238468885,map,0.144672177817,-0.00202598263485,0.0564871990265,0.00377429782904,-0.0020308744433,-0.00577002930418,0.999974168503
1752630021234478950,42,1752630021234478950,map,0.155124670225,-0.0092746261229,0.0612603355946,0.0107750301145,-0.0019884317461,-0.0161905085866,0.999808896699
1752630022234610080,43,1752630022234610080,map,0.165594309587,-0.0128145877149,0.0662462941631,0.0133953836408,-0.00141718461196,-0.0317635491857,0.999404640593
1752630023234499931,44,1752630023234499931,map,0.184592626423,-0.0285404585314,0.0761273040446,0.0277945459977,-0.000333970725771,-0.0624355726802,0.997661837306
1752630024234473943,45,1752630024234473943,map,0.193226097306,-0.0340083377747,0.0788234080059,0.0322657936205,-0.000655246434073,-0.0687131253028,0.997114339337
1752630025234518051,46,1752630025234518051,map,0.203777388319,-0.0390407677241,0.0821671147645,0.0352984727499,6.57969045843e-05,-0.0786947810011,0.996273637872
1752630026234492063,47,1752630026234492063,map,0.212224842256,-0.047675180239,0.0877535189552,0.0439446221951,6.85017585098e-05,-0.0929370394339,0.994701751753
1752630027234519004,48,1752630027234519004,map,0.221691820591,-0.052606280264,0.0929852559578,0.0484528584715,0.000776940376111,-0.108549656827,0.992909206523
1752630028234534978,49,1752630028234534978,map,0.232646263099,-0.0579407033454,0.097964603527,0.053967101309,0.00115551897582,-0.121365692429,0.991139038184
1752630029234519958,50,1752630029234519958,map,0.244249529867,-0.0619795279966,0.104131726781,0.0576936819755,0.0015881573686,-0.128817379844,0.989987374524
1752630030234771013,51,1752630030234771013,map,0.254794856536,-0.0650015484349,0.107941909758,0.0592958913543,0.00155220174129,-0.13710263637,0.988779274221
1752630031234476089,52,1752630031234476089,map,0.266188361911,-0.070672106531,0.112509892724,0.0638562978796,0.00104499901216,-0.145881499847,0.987238511038
1752630032237653970,53,1752630032237653970,map,0.278438520924,-0.0751415816142,0.117251741259,0.0662100361624,0.00175943266445,-0.156009968045,0.985532352735
1752630033234491109,54,1752630033234491109,map,0.285357022697,-0.0800898461519,0.12323651599,0.0730613102187,0.00205341623335,-0.164981145069,0.983584790723
1752630034234514951,55,1752630034234514951,map,0.29218302719,-0.0794955339027,0.126673861463,0.0724447717473,0.0027549153227,-0.166672994295,0.983343416434
1752630035238472938,56,1752630035238472938,map,0.300904019399,-0.0791342573175,0.131391401704,0.0727240484472,0.00257590593995,-0.168077985026,0.983084112276
1752630036234464883,57,1752630036234464883,map,0.311238809438,-0.0809495418801,0.134489352451,0.0732882984847,0.0022529861877,-0.168582231865,0.982956651629
1752630037234484910,58,1752630037234484910,map,0.320581302556,-0.0805017204192,0.138597840689,0.073138144407,0.00244546331778,-0.166791624421,0.983272790695
1752630038235413074,59,1752630038235413074,map,0.327579330479,-0.076958269575,0.143464845226,0.0704790244639,0.00268995933222,-0.158082563454,0.984903746092
1752630039234484910,60,1752630039234484910,map,0.338029963585,-0.0698374334554,0.149554123996,0.0658728777846,0.00279013477486,-0.145336877248,0.987182949269
1752630040234489917,61,1752630040234489917,map,0.349510953468,-0.0613978362732,0.155948013202,0.0598464520806,0.00311919926076,-0.131226496789,0.989539427369
1752630041234755039,62,1752630041234755039,map,0.35896332386,-0.0520030126728,0.161092746784,0.0532254404156,0.00286701230163,-0.114999161564,0.991934481221
1752630042234646081,63,1752630042234646081,map,0.362386610851,-0.0388615594713,0.166434874292,0.0439833573842,0.00301783125979,-0.0925778959459,0.994728956027
1752630043234802007,64,1752630043234802007,map,0.371531013891,-0.0293437696886,0.171288883556,0.0362488007875,0.00280069990215,-0.073185841154,0.996655414277
1752630044234467983,65,1752630044234467983,map,0.379751624097,-0.0161452247939,0.175339515362,0.0255484412983,0.00302034553642,-0.0499569997777,0.99841997373
1752630045234556913,66,1752630045234556913,map,0.390119127922,-0.00207905406916,0.179101740489,0.0143873741353,0.00218691813952,-0.0241270674243,0.999602976604
1752630046234508037,67,1752630046234508037,map,0.399611851376,0.00691363000257,0.183322128855,0.00752355202915,0.00216011391503,-0.00579622107867,0.999952561028
1752630047234455108,68,1752630047234455108,map,0.408685874322,0.0173855726015,0.186594179168,-0.0018173728693,0.00173871359483,0.0162655382324,0.999864546722
1752630048234507083,69,1752630048234507083,map,0.417801071005,0.0305356835297,0.189027909612,-0.0140595993217,0.00105684935258,0.0425222005237,0.998996029475
1752630049234462976,70,1752630049234462976,map,0.423115522022,0.0434473028384,0.191653312736,-0.0260622676902,0.000820930447283,0.0710183883886,0.997134132846
1752630050234620094,71,1752630050234620094,map,0.42845078604,0.0537716650957,0.194581626377,-0.0356010858392,0.000903445504189,0.0972861980094,0.994619085744
1752630051234528064,72,1752630051234528064,map,0.427649861794,0.0698326200524,0.194737018016,-0.0520220292732,0.000505645112196,0.13137014122,0.989967340282
1752630052234693050,73,1752630052234693050,map,0.431187339439,0.0796451190924,0.195151347116,-0.0631716344766,-0.00010039679613,0.159159397845,0.985229726618
1752630053234739065,74,1752630053234739065,map,0.438632185697,0.0863979285662,0.197833078637,-0.0692643923355,0.000311149745013,0.175098854732,0.982111364176
1752630054234518051,75,1752630054234518051,map,0.442122475883,0.0953034460122,0.199061767003,-0.078750580003,-0.000468082791085,0.194757191191,0.977684901865
1752630055237131118,76,1752630055237131118,map,0.447363846028,0.100960392716,0.200760990193,-0.0856718065353,-0.000619985864193,0.212298199717,0.973442051297
1752630056234555959,77,1752630056234555959,map,0.461641128139,0.103022940239,0.203677168186,-0.0861507380963,-0.00144143425495,0.215463993091,0.972703059346
1752630057234503984,78,1752630057234503984,map,0.47850405144,0.101599634657,0.206618141163,-0.0837430868068,-0.00320303248901,0.211438709654,0.973791823034
1752630058234484910,79,1752630058234484910,map,0.498457355106,0.0960490580908,0.213922883297,-0.076427617988,-0.00258070412705,0.194185980247,0.977979524598
1752630059234631061,80,1752630059234631061,map,0.53768253236,0.0749809213881,0.22431615056,-0.0508789702369,-0.00537234352839,0.148507845435,0.987586904577
1752630060234944105,81,1752630060234944105,map,0.561863455497,0.0641737083686,0.237030852957,-0.0413587853587,-0.00278716868227,0.114095866558,0.992604558503
1752630061234807014,82,1752630061234807014,map,0.580635331154,0.0486860108522,0.245697741948,-0.0281159687442,-0.00231032335499,0.0834028141481,0.996116518247
1752630062234608888,83,1752630062234608888,map,0.599112683892,0.0345063298829,0.250710197691,-0.0165520241084,-0.00310015424725,0.0486242015065,0.998675176601
1752630063234698057,84,1752630063234698057,map,0.617504173915,0.0137163160194,0.256727283167,0.00235552454784,-0.00277985255482,0.00403347420994,0.99998523284
1752630064234498977,85,1752630064234498977,map,0.637006826019,-0.00314252206533,0.2628676119,0.0140649304757,-0.00196392735875,-0.0290881753288,0.999475960215
1752630065234513044,86,1752630065234513044,map,0.655467338058,-0.0172091141635,0.271457555433,0.0250718669694,-0.00125239720765,-0.0531835497644,0.998269170203
1752630066234479904,87,1752630066234479904,map,0.688156959796,-0.0450040138326,0.28518450192,0.0475697384931,-0.000158470311919,-0.10957824141,0.992839216222
1752630067234476089,88,1752630067234476089,map,0.70166753309,-0.0600975742021,0.289532332475,0.0596665693237,-1.1811325765e-05,-0.13780722965,0.988660234604
1752630068234671115,89,1752630068234671115,map,0.713258509645,-0.0700589447786,0.294927953511,0.0682155255019,-0.000264739921068,-0.154878672846,0.985575556933
1752630069234499931,90,1752630069234499931,map,0.725859024373,-0.0764610064864,0.301134807029,0.0726982747045,0.000393696339784,-0.165464157109,0.983532620834
1752630070234483003,91,1752630070234483003,map,0.738163460606,-0.0810351249897,0.306468003289,0.0759660868344,0.000468695399326,-0.171510712248,0.982248954647
1752630071234487056,92,1752630071234487056,map,0.74750134977,-0.0895776951572,0.309947547456,0.0825302492386,0.000357275170811,-0.184158118825,0.979425559245
1752630072234507083,93,1752630072234507083,map,0.752600278386,-0.0940141360031,0.314307126646,0.0885273803042,-0.000476821389741,-0.190653658175,0.977657330015
1752630073234472990,94,1752630073234472990,map,0.759231761044,-0.0989595252637,0.317132747464,0.0915889106662,0.000522068703912,-0.203733448997,0.974732721814
1752630074237417936,95,1752630074237417936,map,0.768464771299,-0.102410884554,0.322452525808,0.0949278245672,0.00125485142197,-0.208662935559,0.973368847111
1752630075234483003,96,1752630075234483003,map,0.779016294323,-0.103092438082,0.326368501153,0.09454887557,0.000972445599575,-0.21150777284,0.972791876778
1752630076236893892,97,1752630076236893892,map,0.788156618823,-0.104176187363,0.330476588912,0.095135264278,0.00139262867336,-0.211745808209,0.972682401007
1752630077234504938,98,1752630077234504938,map,0.795949968108,-0.104200009519,0.33436480322,0.0950365335111,0.00202490434874,-0.211353449041,0.972776275338
1752630078234477996,99,1752630078234477996,map,0.800403794755,-0.103154937408,0.334740052037,0.0938763590217,0.0013702285653,-0.209608335461,0.9732675355
1752630079234493017,100,1752630079234493017,map,0.7987236484,-0.0975428139719,0.335657579306,0.0896567305923,0.00153461109641,-0.201174231895,0.975442587523
1752630080234477043,101,1752630080234477043,map,0.797424709222,-0.0899613514074,0.335567755207,0.0836472408033,0.0019483333431,-0.18899692259,0.97840662214
1752630081234467983,102,1752630081234467983,map,0.796981060046,-0.0816419359555,0.33595214701,0.0770061924956,0.00300812783834,-0.179283334746,0.980774432856
1752630082234463930,103,1752630082234463930,map,0.79916315189,-0.0755329184146,0.332507053898,0.0713006727519,0.00122096272117,-0.166667004027,0.983431151678
1752630083234479904,104,1752630083234479904,map,0.795863086428,-0.06831541697,0.334272563431,0.0661542179308,0.00128553536606,-0.153790695514,0.985885588825
1752630084234453916,105,1752630084234453916,map,0.795137441144,-0.0629524202348,0.331772215851,0.0616405981106,0.000581642279872,-0.143116544859,0.987784256946
1752630085234479904,106,1752630085234479904,map,0.793178119668,-0.0549441079615,0.332104384223,0.0558331813901,0.000995158058747,-0.132201203639,0.989648679617
1752630086234472036,107,1752630086234472036,map,0.789920690751,-0.0505983544578,0.329046971228,0.0514367483091,0.000630798052613,-0.126240981682,0.99066496597
1752630087234488964,108,1752630087234488964,map,0.782192859379,-0.0466574038335,0.324838535033,0.0483992720365,-4.18663179412e-05,-0.117999809361,0.991833435923
1752630088234473943,109,1752630088234473943,map,0.7737417386,-0.0410403927881,0.321245122707,0.043069187093,4.19686794303e-05,-0.107567334367,0.99326447736
1752630089234488010,110,1752630089234488010,map,0.765328834229,-0.0373067926188,0.316301593377,0.0396765625063,-0.00109358686648,-0.0963497358641,0.99455583067
1752630090234458923,111,1752630090234458923,map,0.754049904918,-0.030316764471,0.311776805814,0.0341296628395,-0.00103222055278,-0.0844104462228,0.99584586107
1752630091234489917,112,1752630091234489917,map,0.742032194037,-0.0226998106374,0.306304663839,0.028093756504,-0.00120927770054,-0.0705997644364,0.997108301827
1752630092234491109,113,1752630092234491109,map,0.731455552397,-0.0163163671194,0.301136493616,0.0219717343717,-0.00162283885158,-0.0572888368747,0.998114521996
1752630093234464883,114,1752630093234464883,map,0.71683224657,-0.00978031333245,0.296073073692,0.0176814081752,-0.00174666233433,-0.044328754389,0.998858985529
1752630094234474897,115,1752630094234474897,map,0.701800018421,-0.00133217338002,0.290121533174,0.0114193653199,-0.00234374263122,-0.0280050049579,0.999539805858
1752630095234610080,116,1752630095234610080,map,0.686632827748,0.00547401389557,0.284402640299,0.00620889470112,-0.00261585388324,-0.0148797375297,0.999866588455
1752630096234450101,117,1752630096234450101,map,0.67122109451,0.00948202155446,0.278980806095,0.00256400781863,-0.00276791419122,-0.00477041444777,0.999981500037
1752630097235375881,118,1752630097235375881,map,0.653957754643,0.016425145238,0.273712583182,-0.00347804365296,-0.00247292014111,0.00893443100946,0.999950981429
1752630098234497070,119,1752630098234497070,map,0.639122927543,0.0247101468027,0.266519370883,-0.0101009865663,-0.00321497527193,0.0261615312621,0.999601530616
1752630099234452962,120,1752630099234452962,map,0.620934978665,0.0331964633721,0.260780292406,-0.0171108616416,-0.00286479226764,0.043042346614,0.998922594636
1752630100234492063,121,1752630100234492063,map,0.605711507234,0.0389000631745,0.253946220171,-0.0225024801462,-0.00319748008256,0.056191481572,0.998161272036
1752630101234487056,122,1752630101234487056,map,0.590169209366,0.0445998264844,0.246875651347,-0.0298434685694,-0.00339952900517,0.0746099720381,0.996760336042
1752630102234502077,123,1752630102234502077,map,0.567984903642,0.0559572144786,0.238422708053,-0.0396990001733,-0.0039850675975,0.0963778948177,0.994544825795
1752630103234508037,124,1752630103234508037,map,0.54840697038,0.0614475561066,0.23047700836,-0.0473779661764,-0.0041528986187,0.109620960123,0.992834998786
1752630104234503030,125,1752630104234503030,map,0.527592085564,0.0676315780451,0.222327725377,-0.0541651815649,-0.004793155988,0.126390872176,0.990489024087
1752630105234190940,126,1752630105234190940,map,0.508313668816,0.0723311066092,0.215352981495,-0.0602175211861,-0.00434858943567,0.135434228151,0.988945153734
1752630106234519958,127,1752630106234519958,map,0.48874241597,0.0768228417337,0.207753124983,-0.0658120758727,-0.00422994823126,0.149627160754,0.986540720472
1752630107234474897,128,1752630107234474897,map,0.47295150946,0.0828908809636,0.197330379821,-0.0732303302159,-0.0057062775676,0.172582011387,0.982252625889
1752630108234529972,129,1752630108234529972,map,0.45349368315,0.0842373371764,0.195517977642,-0.0818284322832,-0.00115231556236,0.187914061437,0.978770194375
1752630109237365007,130,1752630109237365007,map,0.435811405152,0.0868376104227,0.191793260687,-0.088506244827,0.00131681079253,0.193927759626,0.977014299786
1752630110234519958,131,1752630110234519958,map,0.418171134411,0.086093081948,0.184547686255,-0.091626108135,-0.000100854525062,0.193811729095,0.976750561726
1752630111234545946,132,1752630111234545946,map,0.399164342502,0.0852200567904,0.175555400459,-0.0903489033486,-0.00168316194065,0.188215622499,0.977961720376
1752630112234484910,133,1752630112234484910,map,0.38582288552,0.0830545491289,0.168422599026,-0.0878260715596,-0.00322699114341,0.178003084439,0.980097476225
1752630113238013029,134,1752630113238013029,map,0.369257207138,0.075896305601,0.161754679997,-0.0817128838686,-0.00382647431484,0.165895348173,0.982744675799
1752630114234716892,135,1752630114234716892,map,0.356556333997,0.0683872024575,0.155695312872,-0.0742166750575,-0.00443871489956,0.148597541125,0.986098853932
1752630115234699010,136,1752630115234699010,map,0.345739033077,0.0620293799787,0.147912075378,-0.0668778935072,-0.00630639238513,0.131453102143,0.989043812327
1752630116237900972,137,1752630116237900972,map,0.332840263266,0.0557132846678,0.141836598448,-0.0613729461815,-0.00694677302599,0.114690406659,0.99147929801
1752630117234631061,138,1752630117234631061,map,0.326924618319,0.0481868872322,0.135810422412,-0.0519357678601,-0.00795248055727,0.0907369840962,0.994487926621
1752630118234607934,139,1752630118234607934,map,0.319349253225,0.0399993058372,0.12995136931,-0.042237027559,-0.00874285337488,0.0676625404647,0.99677548734
1752630119234735012,140,1752630119234735012,map,0.308202025343,0.0308968174096,0.124679361154,-0.0333210823709,-0.00905412293029,0.0459809264373,0.998345369616
1752630120234536886,141,1752630120234536886,map,0.296577003299,0.0227936049764,0.118344636379,-0.0248381714755,-0.00874757493317,0.0257346716543,0.999321908823
1752630121234870910,142,1752630121234870910,map,0.279405364534,0.0206831477042,0.114992661188,-0.0194883452258,-0.00584485866029,0.0223257118113,0.999543696844
1752630122240365982,143,1752630122240365982,map,0.261986996031,0.00582110891968,0.108509297519,-0.0171301691206,-0.00806457381203,0.0156389392463,0.999698422078
1752630123234433889,144,1752630123234433889,map,0.253493773753,-0.00277755621001,0.0982907636587,-0.0105142456684,-0.0101497920951,-0.00952567002556,0.999847840117
1752630124240859031,145,1752630124240859031,map,0.241981713447,-0.0116114849512,0.0904272648757,-0.00396891243304,-0.0109829653667,-0.0316286909882,0.999431455937
1752630125235266923,146,1752630125235266923,map,0.23190338482,-0.0218276987828,0.082106769393,0.00457966534051,-0.0120825772808,-0.0543609060079,0.998437741478
1752630126236107110,147,1752630126236107110,map,0.223348853324,-0.0319079402069,0.0735410288094,0.0123598272283,-0.0131840996273,-0.0769435045588,0.996871666918
1752630127234471082,148,1752630127234471082,map,0.216660922455,-0.0418025813195,0.0673212614265,0.0201169650369,-0.0135162894315,-0.0966930068995,0.995019138586
1752630128234469890,149,1752630128234469890,map,0.210263386511,-0.0515021753409,0.059990223446,0.0281577852,-0.01420843016,-0.114903394261,0.992875859127
1752630129234479904,150,1752630129234479904,map,0.201859009473,-0.0650490854691,0.0574262615468,0.0415735241432,-0.0135119984836,-0.139017029155,0.989324689828
1752630130235804080,151,1752630130235804080,map,0.19202967994,-0.0738860973883,0.0501483547637,0.0466435481115,-0.0134159118825,-0.156172143516,0.986536695127
1752630131234464883,152,1752630131234464883,map,0.170691010929,-0.0779725251794,0.0503259862254,0.0492402490429,-0.00941935457021,-0.16020668197,0.98580956755
1752630132234517097,153,1752630132234517097,map,0.158806475334,-0.0779651203637,0.0453026098011,0.0495534907563,-0.00813397887855,-0.164815046069,0.985045318348
1752630133234473943,154,1752630133234473943,map,0.150019218823,-0.0794805084851,0.0395923454368,0.0512634443343,-0.00755772830068,-0.169387651396,0.984186343628
1752630134234518051,155,1752630134234518051,map,0.137744668861,-0.078829798109,0.0333619048675,0.0511213860587,-0.0067096451345,-0.169280006288,0.984218403304
1752630135234616041,156,1752630135234616041,map,0.125185902603,-0.0750443413659,0.0296794218109,0.0496707217863,-0.00602344281134,-0.162075688241,0.985509014877
1752630136234699964,157,1752630136234699964,map,0.112366376933,-0.0661664691108,0.0277041711975,0.0445920387993,-0.0055549937244,-0.145447606799,0.98834492173
1752630137234445095,158,1752630137234445095,map,0.097883897173,-0.0545474189713,0.0269531330564,0.0377960509935,-0.00493846048337,-0.120173938544,0.992020818271
1752630138235070943,159,1752630138235070943,map,0.0822128206643,-0.0384025580496,0.0273828026423,0.0280448815497,-0.00295264390751,-0.084806256523,0.995998325639
1752630139233889102,160,1752630139233889102,map,0.0640934854592,-0.0205013631557,0.0224170138442,0.0163086282222,-0.00274289567749,-0.051295537239,0.998546579757
1752630140234483957,161,1752630140234483957,map,0.04102330332,-0.00972176984172,0.0165502341064,0.00944806234813,-0.00171543876323,-0.0303787269047,0.999492330135
1752630141234445095,162,1752630141234445095,map,0.0171668911768,0.000508341838572,0.00847840811078,0.00209075536252,-0.00206513923349,-0.00900489029412,0.999955131597
1752630142234477043,163,1752630142234477043,map,0.00881777347068,-0.000435177458161,0.00371584275472,-0.00051138139017,-0.00216425982902,-0.000384952587873,0.999997451898
1752630143234437942,164,1752630143234437942,map,-0.00588962519592,0.00598709144542,-0.00318425210903,-0.00581064376974,-0.00258270008286,0.0119881203846,0.999907921486
1752630144234529018,165,1752630144234529018,map,-0.0220227735269,0.0175903390498,-0.00850363737725,-0.0150816820588,-0.00269062976491,0.0337009581907,0.999314535171
1752630145234488010,166,1752630145234488010,map,-0.0311232064161,0.0254848869346,-0.00903476588929,-0.0216888144722,-0.0023379100617,0.0516350760169,0.998427734566
1752630146235601902,167,1752630146235601902,map,-0.0333187856546,0.0289939470913,-0.00995706343802,-0.0247246658537,-0.00215155400376,0.0581383436291,0.998000000153
1752630147234456062,168,1752630147234456062,map,-0.0366787480294,0.0311341349068,-0.00852869615901,-0.0267875725792,-0.00216280284721,0.0643392394525,0.997566137225
1752630148234478950,169,1752630148234478950,map,-0.0352640434747,0.0305619186515,-0.00899472929009,-0.0263323226852,-0.00246828491376,0.0629731835772,0.997664712498
1752630149234489917,170,1752630149234489917,map,-0.0315379458334,0.0263072869053,-0.00815240904601,-0.0230289981604,-0.00250911953302,0.0540012680541,0.998272125745
1752630150234607934,171,1752630150234607934,map,-0.0263536378268,0.0213743045491,-0.00851434072249,-0.0186203071814,-0.00324009452515,0.0441539417323,0.998845939492
1752630151234492063,172,1752630151234492063,map,-0.0198000648828,0.0151018209535,-0.00718902256971,-0.0133568665847,-0.0029650720534,0.0316745341851,0.999404588408
1752630152234481096,173,1752630152234481096,map,-0.013442683275,0.00949955087664,-0.00616384241764,-0.00907255142902,-0.0031288890275,0.0200730257366,0.999752461075
1752630153234477043,174,1752630153234477043,map,-0.00806425029124,0.0043782807408,-0.00458982933458,-0.00462104349741,-0.00319829612322,0.00693537334301,0.999960160952
1752630154234474897,175,1752630154234474897,map,-0.00611650010064,0.00102564217954,-0.00365614499212,-0.00180429911894,-0.00286884016554,-7.22380170074e-05,0.999994263036
1752630155234791040,176,1752630155234791040,map,-0.00336846696771,-0.00261271871142,-0.00359728290486,0.00113469569125,-0.00265022369973,-0.00677612868075,0.99997288697
1752630156234477043,177,1752630156234477043,map,-0.000584467855572,-0.00605730127106,-0.00284042304369,0.00441156484001,-0.00240620163613,-0.014469534693,0.999882691178
1752630157234483957,178,1752630157234483957,map,0.00112576309958,-0.00733391919913,-0.00325451098499,0.00514008639723,-0.00269818362997,-0.0174383500095,0.999831088523
1752630158234505891,179,1752630158234505891,map,0.00184520639117,-0.00926740573207,-0.00308667530436,0.0070933490943,-0.00222325610814,-0.0194961040108,0.999782300141
1752630159237199068,180,1752630159237199068,map,0.0017687271612,-0.00943240471142,-0.00282170412673,0.00722191785859,-0.00204901352166,-0.0192753277312,0.999786026235
1752630160234489917,181,1752630160234489917,map,0.0013500295931,-0.0092691382432,-0.00209761511682,0.00748249275395,-0.0012192248777,-0.0194409921134,0.999782255427
1752630161234586000,182,1752630161234586000,map,0.00239027169669,-0.00924127382952,-0.00219071006253,0.00755503781056,-0.000926315649082,-0.0194973387946,0.999780936387
1752630162234664916,183,1752630162234664916,map,0.00170597840896,-0.00931293337556,-0.00193676380836,0.00760836622584,-0.000465501430273,-0.0191580692826,0.999787404887
1752630163234579086,184,1752630163234579086,map,0.00188206301218,-0.00997629218522,-0.00168494150806,0.00815884322736,-0.000353414886319,-0.0188648573683,0.999788686658
1752630164234498977,185,1752630164234498977,map,0.00209544854014,-0.00917124761252,-0.0017206045863,0.00755148205709,-0.000609078061524,-0.0193257790339,0.999784528347
1752630165234683036,186,1752630165234683036,map,0.00222580488046,-0.0096433890885,-0.00173121643659,0.00790281881159,-0.000602362458875,-0.0190167473595,0.999787747686
1752630166234615087,187,1752630166234615087,map,0.00108500468606,-0.0096864262253,-0.00110994592375,0.0079928914407,-0.000205325336182,-0.019013827082,0.999787255843
1752630167234541893,188,1752630167234541893,map,0.00115005969187,-0.00952866447308,-0.00125345751746,0.00782660234821,-0.000157652674544,-0.0190671387082,0.999787561382
1752630168234741926,189,1752630168234741926,map,0.00124614537097,-0.00930374541746,-0.00127706333759,0.00726341779439,-8.6302991505e-05,-0.0192203669542,0.999788887866
1752630169234725952,190,1752630169234725952,map,0.00113662333071,-0.00908773063129,-0.00114909186332,0.00716587926183,-0.000139218425763,-0.0193984252493,0.999786138018
1752630170234597921,191,1752630170234597921,map,0.00107753001809,-0.00925703000699,-0.00113631672317,0.00721551726848,-0.000324107696276,-0.0192565640836,0.999788492902
1752630171234488010,192,1752630171234488010,map,0.00110267681799,-0.00904268581343,-0.000920797792627,0.00719885312101,-0.000186522496831,-0.0194132970219,0.999785608913
1752630172234488964,193,1752630172234488964,map,0.00111932560412,-0.00918900544451,-0.00107883521979,0.00727329554236,-0.000193932744718,-0.019324707919,0.999786786357
1752630173234483957,194,1752630173234483957,map,0.00116096107083,-0.00924471110399,-0.00124330750402,0.00732508687242,-0.000104436855703,-0.0193081231917,0.999786734192
1752630174234750032,195,1752630174234750032,map,0.00114581312977,-0.00925768025014,-0.001257116913,0.00730624468639,-7.56028741843e-05,-0.0193054169633,0.9997869354
1752630175234996080,196,1752630175234996080,map,0.00111313223051,-0.00926797179231,-0.00116111613201,0.00732687988185,-0.00014367352061,-0.0192881311466,0.9997871068
1752630176234505891,197,1752630176234505891,map,0.00101873705045,-0.00924762745546,-0.00100715503264,0.00729892393287,-0.000237501980168,-0.019264620108,0.999787755138
1752630177234685897,198,1752630177234685897,map,0.00103185325407,-0.00916277419797,-0.00102364304905,0.0072581360135,-0.000267544743754,-0.0193413009174,0.999786555339
1752630178234744071,199,1752630178234744071,map,0.0011007067521,-0.00920614723349,-0.00114932535127,0.00730691875455,-0.000235080516401,-0.0193162709963,0.999786696931
1752630179234745025,200,1752630179234745025,map,0.00113386293679,-0.00910232136539,-0.00127943967979,0.007208200806,-0.000157158854972,-0.0193476216876,0.999786823618
1752630180234561920,201,1752630180234561920,map,0.00117689128768,-0.00912516816728,-0.00126219699897,0.00718728599684,-7.01685045145e-05,-0.0193368229526,0.999787188774
1752630181234721899,202,1752630181234721899,map,0.00112236432708,-0.00917459161342,-0.00109626208969,0.00730425312214,-8.24327158768e-05,-0.0193512812981,0.999786070948
1752630182234488964,203,1752630182234488964,map,0.00113513590401,-0.0092106581113,-0.00108751999927,0.0073487108787,-0.000221768186492,-0.0193454631135,0.999785825026
1752630183234611034,204,1752630183234611034,map,0.00109664374776,-0.00903206799582,-0.00104407030947,0.00722669775784,-0.000232993615587,-0.0194658047909,0.999784379303
1752630184234771966,205,1752630184234771966,map,0.00113349997242,-0.00925660582861,-0.00110397675136,0.00734913061313,-0.000197224154567,-0.0193102979542,0.999786510626
1752630185234636068,206,1752630185234636068,map,0.00114500028536,-0.0091973129486,-0.0011939511689,0.0072387618258,-0.000146850783097,-0.0192972873189,0.999787576286
1752630186236260890,207,1752630186236260890,map,0.00113857330703,-0.00916322525544,-0.0010582706109,0.00731135464807,5.69127290757e-06,-0.0193649064986,0.999785743052
1752630187234489917,208,1752630187234489917,map,0.00115579546791,-0.00925675255721,-0.0010591041799,0.00733935603515,-5.61414665151e-05,-0.0193156777785,0.999786495722
1752630188234797000,209,1752630188234797000,map,0.00119760634398,-0.00921138192386,-0.00117572374312,0.0072902985909,-0.000204086848366,-0.0193363102687,0.999786436105
1752630189234528064,210,1752630189234528064,map,0.00112025275952,-0.00922757866061,-0.00109893458119,0.00728601337745,-0.000238651936777,-0.019301392634,0.999787136609
1752630190234769105,211,1752630190234769105,map,0.00108353251687,-0.00908141378086,-0.00107053942624,0.00726319079751,-0.000233260185915,-0.0194003532003,0.999785385348
1752630191234572887,212,1752630191234572887,map,0.00118762270437,-0.00923553955944,-0.00116782226339,0.00732554825638,-0.000175199617382,-0.019321234736,0.999786473366
1752630192234785079,213,1752630192234785079,map,0.00117383641833,-0.00920932044897,-0.00115901742376,0.00732887317575,-0.000117605617368,-0.0193423288741,0.999786048592
1752630193234499931,214,1752630193234499931,map,0.0012042383968,-0.00925577606643,-0.00111271774644,0.00736288942213,-8.52431158666e-05,-0.0193252841653,0.999786130566
